[
  {
    "cover_file": "104_Bobillot_ID_V1.jpg",
    "title_clean": "104 Bobillot",
    "address_clean": "104 rue Bobillot",
    "city": "Paris 13",
    "type": "office",
    "display_on_map": true,
    "confidence": "high",
    "needs_review": false,
    "notes": null,
    "lat": 48.822695,
    "lng": 2.347024
  },
  {
    "cover_file": "11 Aguesseau_ID_V1.jpg",
    "title_clean": "11 Aguesseau",
    "address_clean": "11 rue d’Aguesseau",
    "city": "Paris 8",
    "type": "office",
    "display_on_map": true,
    "confidence": "medium",
    "needs_review": false,
    "notes": "adresse déduite du titre + Paris 8 visible",
    "lat": 48.870344,
    "lng": 2.319409
  },
  {
    "cover_file": "113B_CDG_ID_V1.jpg",
    "title_clean": "113 bis Charles de Gaulle",
    "address_clean": "113 bis avenue Charles de Gaulle",
    "city": "Neuilly-sur-Seine",
    "type": "office",
    "display_on_map": true,
    "confidence": "high",
    "needs_review": false,
    "notes": null,
    "lat": 48.881565,
    "lng": 2.26944
  },
  {
    "cover_file": "11DA_ID_V1.jpg",
    "title_clean": "11 Aguesseau",
    "address_clean": "11 rue d’Aguesseau",
    "city": "Paris 8",
    "type": "office",
    "display_on_map": true,
    "confidence": "medium",
    "needs_review": false,
    "notes": "doublon probable de 11 Aguesseau",
    "lat": 48.870344,
    "lng": 2.319409
  },
  {
    "cover_file": "11_Beaurepaire_ID_V1.jpg",
    "title_clean": "11 Beaurepaire",
    "address_clean": "11 rue Beaurepaire",
    "city": "Paris 10",
    "type": "office",
    "display_on_map": true,
    "confidence": "high",
    "needs_review": false,
    "notes": null,
    "lat": 48.869865,
    "lng": 2.363491
  },
  {
    "cover_file": "127 CDG ID V1.jpg",
    "title_clean": "127 CDG",
    "address_clean": "127 avenue Charles de Gaulle",
    "city": "Neuilly-sur-Seine",
    "type": "office",
    "display_on_map": true,
    "confidence": "high",
    "needs_review": false,
    "notes": null,
    "lat": 48.882099,
    "lng": 2.267754
  },
  {
    "cover_file": "142_ Montmartre_ID_V1.jpg",
    "title_clean": "142 Montmartre",
    "address_clean": "142 rue Montmartre",
    "city": "Paris 2",
    "type": "office",
    "display_on_map": true,
    "confidence": "high",
    "needs_review": false,
    "notes": null,
    "lat": 48.868884,
    "lng": 2.343412
  },
  {
    "cover_file": "15_GA_ID_V1.jpg",
    "title_clean": "15 avenue de la Grande Armée",
    "address_clean": "15 avenue de la Grande Armée",
    "city": "Paris 16",
    "type": "office",
    "display_on_map": true,
    "confidence": "high",
    "needs_review": false,
    "notes": null,
    "lat": 48.874669,
    "lng": 2.291109
  },
  {
    "cover_file": "15_Grande_Armee_ID_V1.jpg",
    "title_clean": "15 Grande Armée",
    "address_clean": "15 avenue de la Grande Armée",
    "city": "Paris 16",
    "type": "office",
    "display_on_map": true,
    "confidence": "high",
    "needs_review": false,
    "notes": null,
    "lat": 48.874669,
    "lng": 2.291109
  },
  {
    "cover_file": "16P_ID_V1.jpg",
    "title_clean": "16 Paix",
    "address_clean": "16 rue de la Paix",
    "city": "Paris 2",
    "type": "office",
    "display_on_map": true,
    "confidence": "medium",
    "needs_review": false,
    "notes": "Paris Vendôme visible; arrondissement à vérifier",
    "lat": 48.869371,
    "lng": 2.331533
  },
  {
    "cover_file": "188 Rivoli_177 Saint-Honore_ID_V1.jpg",
    "title_clean": "188 Rivoli / 177 Saint-Honoré",
    "address_clean": "188 rue de Rivoli / 177 rue Saint-Honoré",
    "city": "Paris 1",
    "type": "office",
    "display_on_map": true,
    "confidence": "high",
    "needs_review": false,
    "notes": null,
    "lat": 48.862491,
    "lng": 2.338563
  },
  {
    "cover_file": "19_Blanche_ID_V1.jpg",
    "title_clean": "19 Blanche",
    "address_clean": "19 rue Blanche",
    "city": "Paris 9",
    "type": "office",
    "display_on_map": true,
    "confidence": "high",
    "needs_review": false,
    "notes": null,
    "lat": 48.879021,
    "lng": 2.331383
  },
  {
    "cover_file": "1JL_ID_V1.jpg",
    "title_clean": "1 Jules Lefebvre",
    "address_clean": "1 rue Jules Lefebvre",
    "city": "Paris 9",
    "type": "office",
    "display_on_map": true,
    "confidence": "medium",
    "needs_review": false,
    "notes": "cover indique Paris VIII mais la rue est généralement Paris 9; à vérifier",
    "lat": 48.880437,
    "lng": 2.328482
  },
  {
    "cover_file": "1_Desmoulins_ID_V1.jpg",
    "title_clean": "1 Camille Desmoulins",
    "address_clean": "1 rue Camille Desmoulins",
    "city": "Issy-les-Moulineaux",
    "type": "office",
    "display_on_map": true,
    "confidence": "high",
    "needs_review": false,
    "notes": null,
    "lat": 48.831129,
    "lng": 2.266871
  },
  {
    "cover_file": "2 Semard ID V1.jpg",
    "title_clean": "Pierre Sémard",
    "address_clean": "9 rue Pierre Sémard",
    "city": "Paris 9",
    "type": "office",
    "display_on_map": true,
    "confidence": "high",
    "needs_review": false,
    "notes": null,
    "lat": 48.878088,
    "lng": 2.347376
  },
  {
    "cover_file": "20_Provence_ID_V1.jpg",
    "title_clean": "20 Provence",
    "address_clean": "20 rue de Provence",
    "city": "Paris 9",
    "type": "office",
    "display_on_map": true,
    "confidence": "high",
    "needs_review": false,
    "notes": "géocodage corrigé: 20 rue de Provence, 75009 Paris",
    "lat": 48.8743,
    "lng": 2.3349
  },
  {
    "cover_file": "23_AE_ID_V1.jpg",
    "title_clean": "23 rue de l’Amiral d’Estaing",
    "address_clean": "23 rue de l’Amiral d’Estaing",
    "city": "Paris 16",
    "type": "office",
    "display_on_map": true,
    "confidence": "high",
    "needs_review": false,
    "notes": null,
    "lat": 48.867752,
    "lng": 2.29305
  },
  {
    "cover_file": "24_Capucines_ID_V1.jpg",
    "title_clean": "24 Capucines",
    "address_clean": "24 boulevard des Capucines",
    "city": "Paris 9",
    "type": "office",
    "display_on_map": true,
    "confidence": "medium",
    "needs_review": false,
    "notes": null,
    "lat": 48.870192,
    "lng": 2.328599
  },
  {
    "cover_file": "24_Wagram_ID_V1.jpg",
    "title_clean": "24 Wagram",
    "address_clean": "24 avenue de Wagram",
    "city": "Paris 8",
    "type": "office",
    "display_on_map": true,
    "confidence": "high",
    "needs_review": false,
    "notes": null,
    "lat": 48.87634,
    "lng": 2.297185
  },
  {
    "cover_file": "25_Malesherbes_ID_V1.jpg",
    "title_clean": "25 Malesherbes",
    "address_clean": "25 boulevard Malesherbes",
    "city": "Paris 8",
    "type": "office",
    "display_on_map": true,
    "confidence": "high",
    "needs_review": false,
    "notes": null,
    "lat": 48.872412,
    "lng": 2.321323
  },
  {
    "cover_file": "27 Berri ID V1.jpg",
    "title_clean": "27 Berri",
    "address_clean": "27 rue de Berri",
    "city": "Paris 8",
    "type": "office",
    "display_on_map": true,
    "confidence": "medium",
    "needs_review": false,
    "notes": null,
    "lat": 48.873121,
    "lng": 2.305282
  },
  {
    "cover_file": "280-282_Saint-Germain_ID_V1.jpg",
    "title_clean": "280-282 Saint-Germain",
    "address_clean": "280-282 boulevard Saint-Germain",
    "city": "Paris 7",
    "type": "office",
    "display_on_map": true,
    "confidence": "high",
    "needs_review": false,
    "notes": null,
    "lat": 48.861449,
    "lng": 2.32061
  },
  {
    "cover_file": "28_Rihour_ID_V1.jpg",
    "title_clean": "28 Place Rihour",
    "address_clean": "28 place Rihour",
    "city": "Lille",
    "type": "office",
    "display_on_map": true,
    "confidence": "high",
    "needs_review": false,
    "notes": null,
    "lat": 50.635947,
    "lng": 3.062573
  },
  {
    "cover_file": "2_Damiette_ID_V1.jpg",
    "title_clean": "9 rue de Damiette",
    "address_clean": "9 rue de Damiette",
    "city": "Paris 2",
    "type": "office",
    "display_on_map": true,
    "confidence": "high",
    "needs_review": false,
    "notes": null,
    "lat": 48.867872,
    "lng": 2.348401
  },
  {
    "cover_file": "30-34_VINCENNES_ID_V1.jpg",
    "title_clean": "30-34 cours de Vincennes",
    "address_clean": "30-34 cours de Vincennes",
    "city": "Paris 12",
    "type": "office",
    "display_on_map": true,
    "confidence": "high",
    "needs_review": false,
    "notes": null,
    "lat": 48.847469,
    "lng": 2.401866
  },
  {
    "cover_file": "32_IENA_ID_V1.jpg",
    "title_clean": "32 Iéna",
    "address_clean": "32 avenue d’Iéna",
    "city": "Paris 16",
    "type": "office",
    "display_on_map": true,
    "confidence": "high",
    "needs_review": false,
    "notes": null,
    "lat": 48.865977,
    "lng": 2.294936
  },
  {
    "cover_file": "41_Victor_Hugo_ID_V1.jpg",
    "title_clean": "41 Victor Hugo",
    "address_clean": "41 avenue Victor Hugo",
    "city": "Bois-Colombes",
    "type": "office",
    "display_on_map": true,
    "confidence": "high",
    "needs_review": false,
    "notes": null,
    "lat": 48.916979,
    "lng": 2.272684
  },
  {
    "cover_file": "43_AM_ID_V1.jpg",
    "title_clean": "43 avenue Marceau",
    "address_clean": "43 avenue Marceau",
    "city": "Paris 16",
    "type": "office",
    "display_on_map": true,
    "confidence": "high",
    "needs_review": false,
    "notes": null,
    "lat": 48.868792,
    "lng": 2.298466
  },
  {
    "cover_file": "43_Bayen_ID_V1.jpg",
    "title_clean": "43 Bayen",
    "address_clean": "43 rue Bayen",
    "city": "Paris 17",
    "type": "office",
    "display_on_map": true,
    "confidence": "high",
    "needs_review": false,
    "notes": null,
    "lat": 48.88138,
    "lng": 2.292485
  },
  {
    "cover_file": "43_Vineuse_ID_V1.jpg",
    "title_clean": "43 Vineuse",
    "address_clean": "43 rue Vineuse",
    "city": "Paris 16",
    "type": "office",
    "display_on_map": true,
    "confidence": "high",
    "needs_review": false,
    "notes": null,
    "lat": 48.861043,
    "lng": 2.285626
  },
  {
    "cover_file": "47_Sevres_ID_V1.jpg",
    "title_clean": "47 Sèvres",
    "address_clean": "47 rue de Sèvres",
    "city": "Paris 6",
    "type": "office",
    "display_on_map": true,
    "confidence": "high",
    "needs_review": false,
    "notes": null,
    "lat": 48.850439,
    "lng": 2.324934
  },
  {
    "cover_file": "49-51_Vivienne_ID_V1.jpg",
    "title_clean": "49-51 Vivienne",
    "address_clean": "49-51 rue Vivienne",
    "city": "Paris 2",
    "type": "office",
    "display_on_map": true,
    "confidence": "high",
    "needs_review": false,
    "notes": null,
    "lat": 48.871206,
    "lng": 2.341243
  },
  {
    "cover_file": "4_Saint-Gilles_ID_V1.jpg",
    "title_clean": "4 Saint-Gilles",
    "address_clean": "4 rue Saint-Gilles",
    "city": "Paris 3",
    "type": "office",
    "display_on_map": true,
    "confidence": "medium",
    "needs_review": false,
    "notes": null,
    "lat": 48.857798,
    "lng": 2.367148
  },
  {
    "cover_file": "5Wilson_ID_V1.jpg",
    "title_clean": "5 avenue du Président Wilson",
    "address_clean": "5 avenue du Président Wilson",
    "city": "Paris 16",
    "type": "office",
    "display_on_map": true,
    "confidence": "high",
    "needs_review": false,
    "notes": null,
    "lat": 48.864835,
    "lng": 2.299448
  },
  {
    "cover_file": "60_Iena_ID_V1.jpg",
    "title_clean": "Villa Iéna",
    "address_clean": "60 avenue d’Iéna",
    "city": "Paris 16",
    "type": "office",
    "display_on_map": true,
    "confidence": "medium",
    "needs_review": false,
    "notes": null,
    "lat": 48.868465,
    "lng": 2.295969
  },
  {
    "cover_file": "68_Courcelles_ID_V1.jpg",
    "title_clean": "68 Courcelles",
    "address_clean": "68 boulevard de Courcelles",
    "city": "Paris 17",
    "type": "office",
    "display_on_map": true,
    "confidence": "high",
    "needs_review": false,
    "notes": null,
    "lat": 48.880169,
    "lng": 2.307042
  },
  {
    "cover_file": "73_Richelieu_ID_V1.jpg",
    "title_clean": "73 Richelieu",
    "address_clean": "73 rue de Richelieu",
    "city": "Paris 2",
    "type": "office",
    "display_on_map": true,
    "confidence": "high",
    "needs_review": false,
    "notes": null,
    "lat": 48.868554,
    "lng": 2.338297
  },
  {
    "cover_file": "7M ID V1.jpg",
    "title_clean": "7 Meyerbeer",
    "address_clean": "7 rue Meyerbeer / 10 rue Halévy",
    "city": "Paris 9",
    "type": "office",
    "display_on_map": true,
    "confidence": "high",
    "needs_review": false,
    "notes": null,
    "lat": 48.871906,
    "lng": 2.333124
  },
  {
    "cover_file": "7_Adenauer_ID_V1.jpg",
    "title_clean": "7 Adenauer",
    "address_clean": "7 place du Chancelier Adenauer",
    "city": "Paris 16",
    "type": "office",
    "display_on_map": true,
    "confidence": "medium",
    "needs_review": false,
    "notes": null,
    "lat": 48.870835,
    "lng": 2.278975
  },
  {
    "cover_file": "81_Voltaire_ID_V1.jpg",
    "title_clean": "81 boulevard Voltaire",
    "address_clean": "81 boulevard Voltaire",
    "city": "Paris 11",
    "type": "office",
    "display_on_map": true,
    "confidence": "high",
    "needs_review": false,
    "notes": null,
    "lat": 48.86033,
    "lng": 2.376202
  },
  {
    "cover_file": "8_Arcade_ID_V1.jpg",
    "title_clean": "8 rue de l’Arcade",
    "address_clean": "8 rue de l’Arcade",
    "city": "Paris 8",
    "type": "office",
    "display_on_map": true,
    "confidence": "high",
    "needs_review": false,
    "notes": null,
    "lat": 48.871208,
    "lng": 2.323521
  },
  {
    "cover_file": "8_Cite_Paradis_ID_V1.jpg",
    "title_clean": "8 Cité Paradis",
    "address_clean": "8 cité Paradis",
    "city": "Paris 10",
    "type": "office",
    "display_on_map": true,
    "confidence": "high",
    "needs_review": false,
    "notes": null,
    "lat": 48.874943,
    "lng": 2.350554
  },
  {
    "cover_file": "8_Sofia_ID_V1.jpg",
    "title_clean": "8 Sofia",
    "address_clean": "8 rue de Sofia",
    "city": "Paris 18",
    "type": "office",
    "display_on_map": true,
    "confidence": "high",
    "needs_review": false,
    "notes": null,
    "lat": 48.884842,
    "lng": 2.348331
  },
  {
    "cover_file": "90_Ternes_ID_V1.jpg",
    "title_clean": "90 Ternes",
    "address_clean": "90 avenue des Ternes",
    "city": "Paris 17",
    "type": "office",
    "display_on_map": true,
    "confidence": "high",
    "needs_review": false,
    "notes": null,
    "lat": 48.880435,
    "lng": 2.287231
  },
  {
    "cover_file": "92_France_ID_V1.jpg",
    "title_clean": "92 avenue de France",
    "address_clean": "92 avenue de France",
    "city": "Paris 13",
    "type": "office",
    "display_on_map": true,
    "confidence": "high",
    "needs_review": false,
    "notes": null,
    "lat": 48.829445,
    "lng": 2.378131
  },
  {
    "cover_file": "98 Victoire ID V1.jpg",
    "title_clean": "98 Victoire",
    "address_clean": "98 rue de la Victoire",
    "city": "Paris 9",
    "type": "office",
    "display_on_map": true,
    "confidence": "medium",
    "needs_review": false,
    "notes": null,
    "lat": 48.874776,
    "lng": 2.330351
  },
  {
    "cover_file": "9_Opera_ID_V1.jpg",
    "title_clean": "9 Opéra",
    "address_clean": "9 avenue de l’Opéra",
    "city": "Paris 1",
    "type": "office",
    "display_on_map": true,
    "confidence": "high",
    "needs_review": false,
    "notes": null,
    "lat": 48.865141,
    "lng": 2.334448
  },
  {
    "cover_file": "ADN ID V1.jpg",
    "title_clean": "ADN",
    "address_clean": "13 rue Alphonse de Neuville",
    "city": "Paris 17",
    "type": "office",
    "display_on_map": true,
    "confidence": "high",
    "needs_review": false,
    "notes": null,
    "lat": 48.885859,
    "lng": 2.302289
  },
  {
    "cover_file": "Air_Promenade_ID_V1.jpg",
    "title_clean": "Air Promenade",
    "address_clean": "7 promenade des Anglais",
    "city": "Nice",
    "type": "office",
    "display_on_map": true,
    "confidence": "high",
    "needs_review": false,
    "notes": null,
    "lat": 43.694995,
    "lng": 7.264009
  },
  {
    "cover_file": "Austerlitz_II_ID_V1.jpg",
    "title_clean": "Austerlitz II",
    "address_clean": "41-49 Quai d’Austerlitz // 52-60 Avenue Pierre Mendès France",
    "city": "Paris 13",
    "type": "office",
    "display_on_map": true,
    "confidence": "low",
    "needs_review": true,
    "notes": "adresse non lisible sur cover",
    "lat": 48.840497,
    "lng": 2.369591
  },
  {
    "cover_file": "Baldi_ID_V1.jpg",
    "title_clean": "Le Baldi",
    "address_clean": "44-50 avenue du Capitaine Glarner",
    "city": "Saint-Ouen-sur-Seine",
    "type": "office",
    "display_on_map": true,
    "confidence": "high",
    "needs_review": false,
    "notes": "adresse corrigée depuis 46 rue du Capitaine Guynemer vers 44-50 avenue du Capitaine Glarner",
    "lat": 48.903764,
    "lng": 2.329146
  },
  {
    "cover_file": "Bloc Opera - ID V1.jpg",
    "title_clean": "Bloc Opéra",
    "address_clean": "3 rue d’Antin / 42 avenue de l’Opéra",
    "city": "Paris 2",
    "type": "office",
    "display_on_map": true,
    "confidence": "high",
    "needs_review": false,
    "notes": null,
    "lat": 48.864187,
    "lng": 2.334858
  },
  {
    "cover_file": "CB3_ID_V1.jpg",
    "title_clean": "CB3",
    "address_clean": "170 place Henri-Regnault",
    "city": "Courbevoie / La Défense",
    "type": "office",
    "display_on_map": true,
    "confidence": "high",
    "needs_review": false,
    "notes": null,
    "lat": 48.89356,
    "lng": 2.241427
  },
  {
    "cover_file": "CC_Cloche_dOr_ID_V1.jpg",
    "title_clean": "Cloche d’Or",
    "address_clean": "25 Bd Friedrich Wilhelm Raiffeisen, 2411 Gasperich",
    "city": "Luxembourg",
    "type": "retail",
    "display_on_map": true,
    "confidence": "low",
    "needs_review": true,
    "notes": "Shopping centre Luxembourg; adresse à préciser",
    "lat": null,
    "lng": null
  },
  {
    "cover_file": "Caracteres_ID_V1.jpg",
    "title_clean": "Caractères",
    "address_clean": "117-123 rue Adolphe Fischer / 15 rue du Commerce",
    "city": "Luxembourg",
    "type": "residential",
    "display_on_map": true,
    "confidence": "medium",
    "needs_review": false,
    "notes": "adresse corrigée: projet Caractères à Hollerich, Luxembourg",
    "lat": 49.5989,
    "lng": 6.126
  },
  {
    "cover_file": "Couv_9av.Ope╠üra_ID_V1.jpg",
    "title_clean": "9 avenue de l’Opéra",
    "address_clean": "9 avenue de l’Opéra",
    "city": "Paris 1",
    "type": "office",
    "display_on_map": true,
    "confidence": "high",
    "needs_review": false,
    "notes": null,
    "lat": 48.865141,
    "lng": 2.334448
  },
  {
    "cover_file": "DDA ID V1.jpg",
    "title_clean": "Domaine des Andéols",
    "address_clean": null,
    "city": "Saint-Saturnin-lès-Apt",
    "type": "hotel",
    "display_on_map": true,
    "confidence": "medium",
    "needs_review": true,
    "notes": "adresse précise non lisible",
    "lat": 43.972125,
    "lng": 5.350913
  },
  {
    "cover_file": "Ecoquartier_des_Costieres_ID_V1.jpg",
    "title_clean": "Écoquartier des Costières",
    "address_clean": null,
    "city": "Nîmes",
    "type": "mixed_use",
    "display_on_map": true,
    "confidence": "medium",
    "needs_review": true,
    "notes": null,
    "lat": 43.845568,
    "lng": 4.393801
  },
  {
    "cover_file": "Euroatrium-Espace Seine_ID_V1.jpg",
    "title_clean": "Euroatrium / Espace Seine",
    "address_clean": "8 rue Touzet-Gaillard / 15 rue Ranton",
    "city": "Saint-Ouen / Levallois-Perret",
    "type": "office",
    "display_on_map": true,
    "confidence": "medium",
    "needs_review": false,
    "notes": "deux assets sur une cover",
    "lat": 48.892189,
    "lng": 2.292438
  },
  {
    "cover_file": "GV - Couverture-ID - V1.jpg",
    "title_clean": "162 George V",
    "address_clean": "162 avenue George V",
    "city": "Paris 8",
    "type": "office",
    "display_on_map": true,
    "confidence": "high",
    "needs_review": false,
    "notes": null,
    "lat": 48.868346,
    "lng": 2.301152
  },
  {
    "cover_file": "Galilee_Vernet_ID_V1.jpg",
    "title_clean": "Galilée Vernet",
    "address_clean": "6 rue Galilée / 25 rue Vernet",
    "city": "Paris 16",
    "type": "office",
    "display_on_map": true,
    "confidence": "medium",
    "needs_review": false,
    "notes": null,
    "lat": 48.867444,
    "lng": 2.291136
  },
  {
    "cover_file": "Gaveau_Boetie_ID_V1.jpg",
    "title_clean": "Salle Gaveau",
    "address_clean": "45-47 rue La Boétie",
    "city": "Paris 8",
    "type": "office",
    "display_on_map": true,
    "confidence": "high",
    "needs_review": false,
    "notes": null,
    "lat": 48.873499,
    "lng": 2.31403
  },
  {
    "cover_file": "H2B_ID_V1.jpg",
    "title_clean": "H2B",
    "address_clean": "30-32 rue Henri Barbusse",
    "city": "Clichy",
    "type": "office",
    "display_on_map": true,
    "confidence": "high",
    "needs_review": false,
    "notes": null,
    "lat": 48.899293,
    "lng": 2.304759
  },
  {
    "cover_file": "HP_ID_V1.jpg",
    "title_clean": "Hôtel Potocki",
    "address_clean": "27 avenue de Friedland",
    "city": "Paris 8",
    "type": "hotel",
    "display_on_map": true,
    "confidence": "high",
    "needs_review": false,
    "notes": null,
    "lat": 48.87423,
    "lng": 2.301303
  },
  {
    "cover_file": "HautPave╠ü_ID_V1.jpg",
    "title_clean": "Le Haut Pavé",
    "address_clean": "48 rue du Haut Pavé",
    "city": "Étampes",
    "type": "residential",
    "display_on_map": true,
    "confidence": "high",
    "needs_review": false,
    "notes": null,
    "lat": 48.430324,
    "lng": 2.148331
  },
  {
    "cover_file": "Hoche - ID - V1.jpg",
    "title_clean": "20/20 avenue Hoche",
    "address_clean": "20-20 bis avenue Hoche",
    "city": "Paris 8",
    "type": "office",
    "display_on_map": true,
    "confidence": "medium",
    "needs_review": false,
    "notes": null,
    "lat": 48.876142,
    "lng": 2.300889
  },
  {
    "cover_file": "Hotel_Rohan-Montbazon_ID_V1.jpg",
    "title_clean": "Hôtel Rohan-Montbazon",
    "address_clean": "29 rue du Faubourg Saint-Honoré",
    "city": "Paris 8",
    "type": "hotel",
    "display_on_map": true,
    "confidence": "high",
    "needs_review": false,
    "notes": null,
    "lat": 48.868972,
    "lng": 2.320697
  },
  {
    "cover_file": "IH ID V1.jpg",
    "title_clean": "Italian Hospitality",
    "address_clean": null,
    "city": "Italie",
    "type": "hotel",
    "display_on_map": false,
    "confidence": "low",
    "needs_review": true,
    "notes": "portefeuille / opportunité Italie: coordonnées supprimées",
    "lat": null,
    "lng": null
  },
  {
    "cover_file": "In_Situ_ID_V1.jpg",
    "title_clean": "In Situ",
    "address_clean": "57-59 rue Yves Kermen",
    "city": "Boulogne-Billancourt",
    "type": "office",
    "display_on_map": true,
    "confidence": "low",
    "needs_review": true,
    "notes": null,
    "lat": 48.827624,
    "lng": 2.240611
  },
  {
    "cover_file": "Inside_ID_V1.jpg",
    "title_clean": "Inside",
    "address_clean": "7 rue Eugène et Armand Peugeot",
    "city": "Rueil-Malmaison",
    "type": "office",
    "display_on_map": true,
    "confidence": "high",
    "needs_review": false,
    "notes": null,
    "lat": 48.88977,
    "lng": 2.172699
  },
  {
    "cover_file": "Jazz_ID_V1.jpg",
    "title_clean": "Jazz",
    "address_clean": "190 avenue Jean Jaures",
    "city": "Paris 19",
    "type": "office",
    "display_on_map": true,
    "confidence": "low",
    "needs_review": true,
    "notes": "adresse non lisible sur cover",
    "lat": 48.888124,
    "lng": 2.391216
  },
  {
    "cover_file": "Kadence_ID_V1.jpg",
    "title_clean": "Kadence",
    "address_clean": "86 rue Regnault",
    "city": "Paris 13",
    "type": "office",
    "display_on_map": true,
    "confidence": "high",
    "needs_review": false,
    "notes": null,
    "lat": 48.823487,
    "lng": 2.37123
  },
  {
    "cover_file": "LARCHE_ID_V1.jpg",
    "title_clean": "L’Arche",
    "address_clean": "1 parvis de la Défense",
    "city": "92800 Puteaux La Défense",
    "type": "office",
    "display_on_map": true,
    "confidence": "low",
    "needs_review": true,
    "notes": null,
    "lat": 48.891676,
    "lng": 2.241092
  },
  {
    "cover_file": "LOlympique_ID_V1.jpg",
    "title_clean": "L’Olympique",
    "address_clean": "9-35 avenue Pierre de Coubertin",
    "city": "Paris 13",
    "type": "office",
    "display_on_map": true,
    "confidence": "high",
    "needs_review": false,
    "notes": null,
    "lat": 48.816879,
    "lng": 2.344321
  },
  {
    "cover_file": "La_Marseillaise_ID_V1.jpg",
    "title_clean": "La Marseillaise",
    "address_clean": "2 bis Bd Euromediterranée Quai d'Arenc",
    "city": "Marseille",
    "type": "office",
    "display_on_map": true,
    "confidence": "medium",
    "needs_review": true,
    "notes": "adresse précise non lisible",
    "lat": 43.317955,
    "lng": 5.363464
  },
  {
    "cover_file": "Le_France_ID_V1.jpg",
    "title_clean": "Le France",
    "address_clean": "115-123 avenue Charles de Gaulle",
    "city": "Neuilly-sur-Seine",
    "type": "office",
    "display_on_map": true,
    "confidence": "high",
    "needs_review": false,
    "notes": null,
    "lat": 48.881957,
    "lng": 2.268203
  },
  {
    "cover_file": "Le_Prisme_ID_V1.jpg",
    "title_clean": "Le Prisme",
    "address_clean": "105 avenue de Paris / avenue Marcelin Berthelot",
    "city": "Châtillon",
    "type": "office",
    "display_on_map": true,
    "confidence": "high",
    "needs_review": false,
    "notes": null,
    "lat": 48.8092,
    "lng": 2.294699
  },
  {
    "cover_file": "Liberte-2_ID_V1.jpg",
    "title_clean": "Liberté 2",
    "address_clean": "5 avenue de la liberté",
    "city": "Charenton-le-Pont",
    "type": "office",
    "display_on_map": true,
    "confidence": "low",
    "needs_review": true,
    "notes": "adresse non lisible",
    "lat": 48.822822,
    "lng": 2.403328
  },
  {
    "cover_file": "Life_ID_V1.jpg",
    "title_clean": "Life",
    "address_clean": "11 rue Béranger",
    "city": "Paris 3",
    "type": "office",
    "display_on_map": true,
    "confidence": "high",
    "needs_review": false,
    "notes": null,
    "lat": 48.86575,
    "lng": 2.363812
  },
  {
    "cover_file": "M-Campus_ID_V1.jpg",
    "title_clean": "M Campus",
    "address_clean": "14 rue de la Verrerie",
    "city": "Meudon",
    "type": "office",
    "display_on_map": true,
    "confidence": "high",
    "needs_review": false,
    "notes": null,
    "lat": 48.821327,
    "lng": 2.232984
  },
  {
    "cover_file": "MR_ID_V1.jpg",
    "title_clean": "Le Moulin du Roc",
    "address_clean": "24530 Champagnac-de-Bélair",
    "city": null,
    "type": "hotel",
    "display_on_map": true,
    "confidence": "low",
    "needs_review": true,
    "notes": null,
    "lat": 45.39703,
    "lng": 0.695643
  },
  {
    "cover_file": "M_ID_V1.jpg",
    "title_clean": "M",
    "address_clean": "130-134 AVENUE PIERRE BROSSOLETTE",
    "city": "Malakoff",
    "type": "office",
    "display_on_map": true,
    "confidence": "low",
    "needs_review": true,
    "notes": null,
    "lat": 48.81606,
    "lng": 2.305411
  },
  {
    "cover_file": "Massy Carnot - ID - V1.jpg",
    "title_clean": "Massy Carnot",
    "address_clean": "1 avenue Carnot / 4 rue Victor Basch",
    "city": "Massy",
    "type": "office",
    "display_on_map": true,
    "confidence": "high",
    "needs_review": false,
    "notes": null,
    "lat": 48.726631,
    "lng": 2.271246
  },
  {
    "cover_file": "Mazagran_ID_V1.jpg",
    "title_clean": "Mazagran",
    "address_clean": "35 rue du Val de Marne",
    "city": "Paris 13",
    "type": "office",
    "display_on_map": true,
    "confidence": "high",
    "needs_review": false,
    "notes": null,
    "lat": 48.826745,
    "lng": 2.354477
  },
  {
    "cover_file": "Monarch_Project_ID_V1.jpg",
    "title_clean": "Monarch Project",
    "address_clean": null,
    "city": "London Mayfair",
    "type": "hotel",
    "display_on_map": true,
    "confidence": "low",
    "needs_review": true,
    "notes": null,
    "lat": null,
    "lng": null
  },
  {
    "cover_file": "Moods_ID_V1.jpg",
    "title_clean": "Moods",
    "address_clean": "2 mail de la Petite Espagne",
    "city": "Saint-Denis",
    "type": "office",
    "display_on_map": true,
    "confidence": "high",
    "needs_review": false,
    "notes": null,
    "lat": 48.918475,
    "lng": 2.365562
  },
  {
    "cover_file": "Most_ID_V1.jpg",
    "title_clean": "Most Monceau",
    "address_clean": "8 rue de Thann",
    "city": "Paris 17",
    "type": "office",
    "display_on_map": true,
    "confidence": "high",
    "needs_review": false,
    "notes": null,
    "lat": 48.881332,
    "lng": 2.309718
  },
  {
    "cover_file": "Nouvel_Air_ID_V1.jpg",
    "title_clean": "Nouvel Air",
    "address_clean": "92-98 rue Guynemer",
    "city": "Issy-les-Moulineaux",
    "type": "office",
    "display_on_map": true,
    "confidence": "medium",
    "needs_review": false,
    "notes": null,
    "lat": 48.830242,
    "lng": 2.277202
  },
  {
    "cover_file": "Opera_Gramont_ID_V1.jpg",
    "title_clean": "Opéra Gramont",
    "address_clean": "14 rue du 4 Septembre / 2 rue de Gramont",
    "city": "Paris 2",
    "type": "office",
    "display_on_map": true,
    "confidence": "high",
    "needs_review": false,
    "notes": null,
    "lat": 48.86958,
    "lng": 2.3371
  },
  {
    "cover_file": "Origami_ID_V1.jpg",
    "title_clean": "Origami",
    "address_clean": "7-9 avenue Friedland",
    "city": "Paris 8",
    "type": "office",
    "display_on_map": true,
    "confidence": "high",
    "needs_review": false,
    "notes": null,
    "lat": 48.874504,
    "lng": 2.303767
  },
  {
    "cover_file": "PM_ID_V1.jpg",
    "title_clean": "Projet Monceau",
    "address_clean": "63 boulevard Malesherbes",
    "city": "Paris 8",
    "type": "office",
    "display_on_map": true,
    "confidence": "medium",
    "needs_review": false,
    "notes": "cover indique aussi 105 rue de Courcelles; à confirmer",
    "lat": 48.876347,
    "lng": 2.317738
  },
  {
    "cover_file": "Portefeuille_BNP_FCF_ID_V1.jpg",
    "title_clean": "Carré des Siècles",
    "address_clean": "Rue du Maréchal Foch",
    "city": "Versailles",
    "type": "portfolio",
    "display_on_map": false,
    "confidence": "medium",
    "needs_review": false,
    "notes": "portefeuille BNP/FCF",
    "lat": 48.809415,
    "lng": 2.133718
  },
  {
    "cover_file": "Prado - ID - V1.jpg",
    "title_clean": "30 Prado",
    "address_clean": "460 avenue du Prado",
    "city": "Marseille",
    "type": "retail",
    "display_on_map": true,
    "confidence": "high",
    "needs_review": false,
    "notes": null,
    "lat": 43.26724,
    "lng": 5.382686
  },
  {
    "cover_file": "Projet_Charlie_ID_V1.jpg",
    "title_clean": "Projet Charlie",
    "address_clean": "Chemin de la Rivière",
    "city": "77186 Noisiel",
    "type": "office",
    "display_on_map": true,
    "confidence": "high",
    "needs_review": false,
    "notes": null,
    "lat": 48.856443,
    "lng": 2.621986
  },
  {
    "cover_file": "Rene-Clair_The-Roof_ID_V1.jpg",
    "title_clean": "The Roof / René Clair",
    "address_clean": "Avenue René-Clair",
    "city": "Boulogne-Billancourt / Paris 16",
    "type": "office",
    "display_on_map": true,
    "confidence": "medium",
    "needs_review": false,
    "notes": null,
    "lat": 48.833845,
    "lng": 2.256382
  },
  {
    "cover_file": "SPALLIS_ID_V1.jpg",
    "title_clean": "Spallis",
    "address_clean": "7 rue Ampère",
    "city": "Saint-Denis",
    "type": "office",
    "display_on_map": true,
    "confidence": "high",
    "needs_review": false,
    "notes": null,
    "lat": 48.923444,
    "lng": 2.341643
  },
  {
    "cover_file": "Sax_ID_V1.jpg",
    "title_clean": "Sax",
    "address_clean": "55-57 bis avenue de Saxe",
    "city": "Paris 7",
    "type": "office",
    "display_on_map": true,
    "confidence": "high",
    "needs_review": false,
    "notes": null,
    "lat": 48.84654,
    "lng": 2.313184
  },
  {
    "cover_file": "Silky_Way_ID_V1.jpg",
    "title_clean": "Silky Way",
    "address_clean": "19 rue Alfred de Musset",
    "city": "Villeurbanne",
    "type": "office",
    "display_on_map": true,
    "confidence": "high",
    "needs_review": false,
    "notes": null,
    "lat": 45.757569,
    "lng": 4.917582
  },
  {
    "cover_file": "Sky_Sophia_ID_V1.jpg",
    "title_clean": "Sky Sophia",
    "address_clean": "776 rue Albert Caquot",
    "city": "Biot / Sophia Antipolis",
    "type": "office",
    "display_on_map": true,
    "confidence": "high",
    "needs_review": false,
    "notes": null,
    "lat": 43.622536,
    "lng": 7.056579
  },
  {
    "cover_file": "Smart_Parc_ID_V1.jpg",
    "title_clean": "Smart Parc",
    "address_clean": "11/19 avenue Dubonnet",
    "city": "Courbevoie",
    "type": "office",
    "display_on_map": true,
    "confidence": "high",
    "needs_review": false,
    "notes": null,
    "lat": 48.902145,
    "lng": 2.262316
  },
  {
    "cover_file": "Soho_House_Paris_ID_V1.jpg",
    "title_clean": "Soho House Paris",
    "address_clean": "45-47 rue de la Bruyère",
    "city": "Paris 9",
    "type": "hotel",
    "display_on_map": true,
    "confidence": "high",
    "needs_review": false,
    "notes": null,
    "lat": 48.879771,
    "lng": 2.33236
  },
  {
    "cover_file": "Solstys_ID_V1.jpg",
    "title_clean": "Solstys",
    "address_clean": "19-21 rue de Vienne",
    "city": "Paris 8",
    "type": "office",
    "display_on_map": true,
    "confidence": "medium",
    "needs_review": false,
    "notes": "géocodage corrigé: Solstys / Signature, 19 rue de Vienne, 75008 Paris",
    "lat": 48.8792,
    "lng": 2.3194
  },
  {
    "cover_file": "Square_dOrleans_ID_V1.jpg",
    "title_clean": "Square d’Orléans",
    "address_clean": "80 rue Taitbout",
    "city": "Paris 9",
    "type": "office",
    "display_on_map": true,
    "confidence": "high",
    "needs_review": false,
    "notes": null,
    "lat": 48.87735,
    "lng": 2.335609
  },
  {
    "cover_file": "SudPont-Stalingrad_ID_V1.jpg",
    "title_clean": "Sud Pont / Stalingrad",
    "address_clean": "12 quai de la Bataille de Stalingrad / 13 place des Cinq Martyrs du Lycée Buffon",
    "city": "Issy-les-Moulineaux / Paris 15",
    "type": "office",
    "display_on_map": true,
    "confidence": "medium",
    "needs_review": false,
    "notes": null,
    "lat": 48.838273,
    "lng": 2.316812
  },
  {
    "cover_file": "TRIDECA_ID_V1.jpg",
    "title_clean": "Trideca",
    "address_clean": "28 rue du château des rentiers",
    "city": "Paris 13",
    "type": "office",
    "display_on_map": true,
    "confidence": "low",
    "needs_review": true,
    "notes": "adresse autour du centre Paris 13 non lisible",
    "lat": 48.824347,
    "lng": 2.370394
  },
  {
    "cover_file": "Theodore_ID_V1.jpg",
    "title_clean": "Théodore",
    "address_clean": "Rue Blanche / Rue La Bruyère / Rue de Châteaudun / Rue de Bruxelles",
    "city": "Paris 9",
    "type": "office",
    "display_on_map": true,
    "confidence": "medium",
    "needs_review": false,
    "notes": "géocodage corrigé: îlot Paris 9 autour de rue Blanche / rue La Bruyère / rue de Châteaudun / rue de Bruxelles",
    "lat": 48.8792,
    "lng": 2.3322
  },
  {
    "cover_file": "Trangram_ID_V1.jpg",
    "title_clean": "Tangram",
    "address_clean": "148 avenue Pierre Brossolette",
    "city": "Malakoff / Montrouge",
    "type": "office",
    "display_on_map": true,
    "confidence": "low",
    "needs_review": true,
    "notes": "adresse précise non lisible",
    "lat": 48.815656,
    "lng": 2.304636
  },
  {
    "cover_file": "URVILLE - ID_V1.jpg",
    "title_clean": "Dumont d’Urville",
    "address_clean": "19-21 rue Dumont d’Urville",
    "city": "Paris 16",
    "type": "office",
    "display_on_map": true,
    "confidence": "high",
    "needs_review": false,
    "notes": null,
    "lat": 48.86975,
    "lng": 2.293668
  },
  {
    "cover_file": "VC_ID_V1.jpg",
    "title_clean": "Victory Cross",
    "address_clean": "46 rue Notre-Dame des Victoires",
    "city": "Paris 2",
    "type": "office",
    "display_on_map": true,
    "confidence": "high",
    "needs_review": false,
    "notes": null,
    "lat": 48.869281,
    "lng": 2.342363
  },
  {
    "cover_file": "VICTORY-CROSS_ID_V1.jpg",
    "title_clean": "Victory Cross",
    "address_clean": "46 rue Notre-Dame des Victoires",
    "city": "Paris 2",
    "type": "office",
    "display_on_map": true,
    "confidence": "high",
    "needs_review": false,
    "notes": null,
    "lat": 48.869281,
    "lng": 2.342363
  },
  {
    "cover_file": "Vertuo_ID_V1.jpg",
    "title_clean": "Vertuo",
    "address_clean": "18 rue Troyon",
    "city": "Sèvres",
    "type": "office",
    "display_on_map": true,
    "confidence": "high",
    "needs_review": false,
    "notes": null,
    "lat": 48.82605,
    "lng": 2.22648
  },
  {
    "cover_file": "Ville_lEveque_ID_V1.jpg",
    "title_clean": "21-25 La Ville-l’Évêque",
    "address_clean": "21-25 rue de la Ville-l’Évêque",
    "city": "Paris 8",
    "type": "office",
    "display_on_map": true,
    "confidence": "high",
    "needs_review": false,
    "notes": null,
    "lat": 48.871737,
    "lng": 2.319467
  },
  {
    "cover_file": "WP2_ID_V1.jpg",
    "title_clean": "West Park",
    "address_clean": "1 place Marcel Paul",
    "city": "Nanterre",
    "type": "office",
    "display_on_map": true,
    "confidence": "high",
    "needs_review": false,
    "notes": null,
    "lat": 48.897227,
    "lng": 2.219101
  },
  {
    "cover_file": "Westfield_ID_V1.jpg",
    "title_clean": "Westfield Parly 2 / Rosny 2",
    "address_clean": "2 Av. Charles de Gaulle",
    "city": "Le Chesnay-Rocquencourt / Rosny-sous-Bois",
    "type": "retail",
    "display_on_map": false,
    "confidence": "medium",
    "needs_review": true,
    "notes": "deux centres commerciaux",
    "lat": 48.829162,
    "lng": 2.116523
  }
]